city_id,City,Country,Cloudiness,Humidity,Latitude,Longitude,Max Temp,Wind Speed
0,busselton,AU,100,67,-33.65,115.3333,66.99,3.0
1,east london,ZA,0,77,-33.0153,27.9116,59.0,4.61
2,thompson,CA,20,74,55.7435,-97.8558,26.6,6.91
3,saint-philippe,RE,0,57,-21.3585,55.7679,82.4,2.3
4,arraial do cabo,BR,64,76,-22.9661,-42.0278,71.26,5.84
5,cabo san lucas,MX,1,44,22.8909,-109.9124,73.99,13.85
6,port alfred,ZA,0,70,-33.5906,26.891,62.83,11.52
7,acarau,BR,99,82,-2.8856,-40.12,76.73,2.98
8,lagunillas,VE,100,84,10.1301,-71.2595,77.4,4.23
9,humaita,BR,34,98,-7.5061,-63.0208,72.45,0.43
10,bluff,NZ,3,80,-46.6,168.3333,57.0,4.0
11,new norfolk,AU,100,72,-42.7826,147.0587,53.01,3.0
12,yibin,CN,100,79,28.7667,104.6238,74.16,1.59
13,esperance,AU,90,63,-33.8667,121.9,66.2,17.27
14,megion,RU,0,46,61.0296,76.1136,46.4,8.95
15,agadir,MA,0,82,30.4202,-9.5982,57.2,3.44
16,pevek,RU,91,89,69.7008,170.3133,18.09,4.63
17,kilindoni,TZ,74,79,-7.9139,39.6668,79.75,22.57
18,ust-maya,RU,71,60,60.4167,134.5333,50.88,5.61
19,rikitea,PF,43,81,-23.1203,-134.9692,77.97,13.02
20,sur,OM,76,36,22.5667,59.5289,91.22,14.25
21,cassilandia,BR,5,53,-19.1133,-51.7342,66.0,3.18
22,preobrazheniye,RU,61,41,42.9019,133.9064,57.83,9.51
23,roald,NO,75,75,62.5833,6.1333,39.2,11.5
24,talnakh,RU,89,91,69.4865,88.3972,31.1,7.36
25,georgetown,MY,20,74,5.4112,100.3354,89.6,4.61
26,gumdag,TM,96,46,39.2061,54.5906,70.09,1.54
27,kovalevskoye,RU,35,73,45.1942,40.9761,64.45,8.88
28,jamestown,US,40,55,42.097,-79.2353,64.4,8.05
29,albany,US,100,72,42.6001,-73.9662,51.01,3.4
30,ubatuba,BR,0,85,-23.4339,-45.0711,66.92,3.51
31,hithadhoo,MV,99,73,-0.6,73.0833,83.64,15.77
32,saldanha,ZA,0,44,-33.0117,17.9442,59.0,13.29
33,hasaki,JP,40,32,35.7333,140.8333,70.0,13.8
34,cherskiy,RU,5,80,68.75,161.3,30.97,6.96
35,bredasdorp,ZA,0,87,-34.5322,20.0403,48.2,3.44
36,hilo,US,90,73,19.7297,-155.09,75.2,6.91
37,kapaa,US,75,78,22.0752,-159.319,75.2,13.8
38,meulaboh,ID,100,66,4.1363,96.1285,86.18,4.45
39,ushuaia,AR,90,74,-54.8,-68.3,32.0,18.41
40,mahebourg,MU,40,83,-20.4081,57.7,80.6,12.66
41,gazojak,TM,65,14,41.1875,61.4036,78.6,11.3
42,kodiak,US,90,87,57.79,-152.4072,41.0,17.27
43,barrow,US,90,73,71.2906,-156.7887,17.6,4.61
44,grogol,ID,55,57,-7.6011,110.8186,88.59,7.65
45,ahome,MX,52,90,25.9167,-109.1833,68.0,8.25
46,torbay,CA,90,75,47.6666,-52.7314,44.01,17.27
47,hobart,AU,75,87,-42.8794,147.3294,53.01,10.36
48,cape town,ZA,0,71,-33.9258,18.4232,63.0,5.75
49,puerto ayora,EC,39,81,-0.7393,-90.3518,74.75,9.35
50,ponta do sol,PT,93,69,32.6667,-17.1,55.0,5.01
51,port lincoln,AU,70,59,-34.7333,135.8667,63.91,14.18
52,santiago de cuba,CU,40,78,20.0247,-75.8219,80.6,8.05
53,tuatapere,NZ,0,80,-46.1333,167.6833,57.0,4.0
54,at-bashi,KG,25,33,41.1702,75.8106,62.76,1.83
55,punta arenas,CL,0,74,-53.15,-70.9167,32.0,6.91
56,dikson,RU,100,84,73.5069,80.5464,29.61,14.52
57,norman wells,CA,20,65,65.282,-126.8329,37.4,3.44
58,anadyr,RU,0,68,64.75,177.4833,19.4,11.18
59,samarai,PG,39,78,-10.6167,150.6667,81.57,9.01
60,pangnirtung,CA,71,93,66.1451,-65.7125,26.42,3.15
61,nanortalik,GL,100,54,60.1432,-45.2371,38.7,23.06
62,qaanaaq,GL,98,61,77.484,-69.3632,24.31,5.5
63,visnes,NO,40,75,59.3556,5.2242,41.0,12.66
64,gisborne,NZ,53,75,-38.6533,178.0042,57.99,6.73
65,atuona,PF,82,78,-9.8,-139.0333,80.19,14.09
66,oriximina,BR,100,95,-1.7656,-55.8661,73.71,2.28
67,san cristobal,VE,99,98,7.7669,-72.225,66.11,0.81
68,sibolga,ID,90,57,1.7427,98.7792,89.58,6.2
69,butaritari,KI,92,74,3.0707,172.7902,83.66,17.65
70,taltal,CL,33,77,-25.4,-70.4833,62.24,2.44
71,hermanus,ZA,0,42,-34.4187,19.2345,66.99,8.88
72,mittagong,AU,11,62,-34.45,150.45,75.99,1.01
73,kavaratti,IN,85,70,10.5669,72.642,85.53,7.18
74,broken hill,AU,40,43,-31.95,141.4333,69.8,13.8
75,ilulissat,GL,0,23,69.2167,-51.1,44.6,19.57
76,necochea,AR,100,92,-38.5473,-58.7368,55.99,4.16
77,marystown,CA,90,93,47.1666,-55.1483,40.5,16.24
78,lagos,NG,40,89,6.5833,3.75,82.4,4.43
79,moura,PT,0,87,38.1401,-7.4486,44.6,6.91
80,santa cruz,BO,5,83,-17.8,-63.1667,71.6,9.22
81,hofn,IS,2,59,64.2539,-15.2082,32.88,15.08
82,chaohu,CN,0,47,31.6,117.8667,80.6,13.42
83,klaksvik,FO,97,86,62.2266,-6.589,32.0,3.44
84,markova,UA,75,66,48.6758,24.4138,48.2,11.18
85,terrace,CA,90,66,54.5163,-128.6035,48.2,10.36
86,birjand,IR,90,100,32.8663,59.2211,57.2,9.22
87,nabire,ID,51,75,-3.3667,135.4833,84.4,3.22
88,puerto madryn,AR,39,47,-42.7692,-65.0385,54.73,13.91
89,tasiilaq,GL,10,86,65.6145,-37.6368,26.6,8.05
90,marrakesh,MA,0,67,31.6315,-8.0083,57.2,4.61
91,souillac,MU,40,83,-20.5167,57.5167,80.6,12.66
92,saskylakh,RU,100,87,71.9167,114.0833,30.94,11.18
93,marawi,PH,90,78,7.9986,124.2928,87.01,5.99
94,alhaurin el grande,ES,75,71,36.643,-4.6873,60.01,4.61
95,bethel,US,98,75,41.3712,-73.414,57.99,0.58
96,mataura,NZ,16,80,-46.1927,168.8643,57.0,4.0
97,orlovskiy,RU,33,68,46.8714,42.0592,65.59,14.94
98,olafsvik,IS,0,61,64.8945,-23.7142,35.46,10.63
99,udachnyy,RU,100,100,66.4167,112.4,33.73,5.5
100,gat,IL,56,40,31.61,34.7642,73.0,2.8
101,avarua,CK,90,78,-21.2078,-159.775,77.0,10.36
102,provideniya,RU,100,71,64.3833,-173.3,27.81,17.0
103,bambanglipuro,ID,13,58,-7.95,110.2833,88.92,8.37
104,chebenki,RU,0,68,51.9337,55.7077,64.4,4.47
105,zeya,RU,95,29,53.75,127.2667,59.85,6.49
106,pitimbu,BR,0,94,-7.4706,-34.8086,73.4,5.75
107,yerraguntla,IN,20,52,14.6372,78.5395,91.4,10.36
108,kartuzy,PL,20,65,54.3342,18.1974,43.0,14.97
109,melfort,CA,95,74,52.8667,-104.6177,32.0,10.36
110,macenta,GN,100,98,8.5435,-9.471,66.38,1.32
111,darab,IR,1,38,28.7519,54.5444,74.37,6.89
112,mamallapuram,IN,40,58,12.6264,80.1722,91.4,8.05
113,alyangula,AU,90,66,-13.8483,136.4192,86.0,10.36
114,barcelos,PT,0,93,41.5388,-8.6151,50.0,2.3
115,piacabucu,BR,95,77,-10.4056,-36.4344,75.4,7.16
116,carnarvon,AU,100,56,-24.8667,113.6333,69.8,8.05
117,rocha,UY,32,87,-34.4833,-54.3333,59.79,7.4
118,aklavik,CA,100,74,68.2191,-135.0107,28.4,10.36
119,nizwa,OM,98,41,22.9333,57.5333,84.06,4.56
120,johi,PK,55,23,26.6921,67.6133,94.8,6.85
121,khatanga,RU,100,94,71.9667,102.5,32.16,9.64
122,aratoca,CO,100,89,6.6935,-73.0208,58.66,1.41
123,noumea,NC,75,78,-22.2763,166.4572,78.01,8.05
124,kendari,ID,19,60,-3.945,122.4989,87.58,8.25
125,port hardy,CA,90,81,50.6996,-127.4199,48.2,3.04
126,san patricio,US,90,94,28.017,-97.5169,75.2,17.27
127,kaitangata,NZ,26,76,-46.2817,169.8464,57.99,1.99
128,lae,PG,40,46,-6.7221,146.9847,93.2,5.75
129,barra,BR,67,66,-11.0894,-43.1417,73.08,5.03
130,naze,JP,40,53,28.3667,129.4833,73.4,8.05
131,sekoma,BW,20,76,-24.4,23.8833,51.51,8.41
132,camalu,MX,41,57,30.85,-116.0667,55.0,1.99
133,matamoros,MX,1,15,25.5333,-103.25,84.2,4.61
134,pisco,PE,40,82,-13.7,-76.2167,66.2,6.91
135,oranjemund,NA,94,46,-28.55,16.4333,68.76,6.2
136,half moon bay,US,1,87,37.4636,-122.4286,55.0,8.05
137,east wenatchee bench,US,1,35,47.4257,-120.2812,55.4,14.97
138,hobyo,SO,100,69,5.3505,48.5268,85.14,10.2
139,praia da vitoria,PT,75,94,38.7333,-27.0667,60.01,9.42
140,barroquinha,BR,85,96,-3.0189,-41.1361,71.6,3.53
141,danjiangkou,CN,100,89,32.5428,111.5086,57.94,4.16
142,tuktoyaktuk,CA,90,86,69.4541,-133.0374,23.0,8.05
143,castro,BR,0,91,-24.7911,-50.0119,55.33,2.91
144,santa maria,BR,4,71,-29.6842,-53.8069,64.87,4.45
145,lesosibirsk,RU,100,80,58.2358,92.4828,46.33,11.32
146,tessalit,ML,0,28,20.1986,1.0114,81.09,17.65
147,pergamino,AR,100,77,-33.89,-60.5736,70.0,1.99
148,waw,SS,100,62,7.7029,27.9953,78.13,3.89
149,obligado,PY,0,83,-27.0333,-55.6333,73.4,4.61
150,westport,US,1,82,41.1415,-73.3579,55.99,4.38
151,ruthin,GB,100,89,53.1137,-3.3178,46.99,1.01
152,teguldet,RU,100,58,57.3064,88.1667,52.16,14.41
153,victoria,HK,91,90,22.2855,114.1577,78.01,3.0
154,coihaique,CL,20,93,-45.5752,-72.0662,37.4,3.44
155,ust-nera,RU,99,77,64.5667,143.2,40.24,3.13
156,yellowknife,CA,20,58,62.456,-114.3525,21.2,4.61
157,luderitz,NA,32,66,-26.6481,15.1594,65.97,4.18
158,bengkulu,ID,87,55,-3.8004,102.2655,89.33,7.74
159,alakurtti,RU,18,59,66.9672,30.3491,32.0,1.99
160,tazovskiy,RU,100,89,67.4667,78.7,30.34,12.1
161,ahipara,NZ,7,66,-35.1667,173.1667,60.1,3.65
162,namibe,AO,2,65,-15.1961,12.1522,75.0,2.39
163,tianpeng,CN,40,61,30.9866,103.9393,80.6,4.47
164,longyearbyen,SJ,20,73,78.2186,15.6401,17.6,11.5
165,ganta,LR,100,99,7.3022,-8.5308,70.7,1.88
166,saint-joseph,RE,0,57,-21.3667,55.6167,82.4,2.3
167,la ronge,CA,94,63,55.1001,-105.2842,26.6,6.91
168,mar del plata,AR,90,100,-38.0023,-57.5575,60.01,3.44
169,ancud,CL,40,93,-41.8697,-73.8203,46.0,3.44
170,aleksandrovka,UA,0,88,46.8383,32.7612,57.2,6.71
171,sohag,EG,0,22,26.557,31.6948,75.2,6.91
172,kruisfontein,ZA,0,40,-34.0033,24.7314,60.06,7.52
173,vaini,TO,75,78,-21.2,-175.2,73.4,10.36
174,malmedy,BE,40,93,50.4269,6.0279,30.99,1.14
175,acajutla,SV,10,93,13.5928,-89.8275,71.01,1.01
176,lebu,CL,100,89,-37.6167,-73.65,52.48,6.38
177,san pedro,PH,20,52,14.35,121.0167,95.0,12.66
178,maniitsoq,GL,0,55,65.4167,-52.9,34.99,10.89
179,alice springs,AU,28,17,-23.7,133.8833,86.0,4.61
180,shuangcheng,CN,0,34,45.35,126.2833,66.2,15.66
181,norfolk,US,92,71,42.1668,-71.2495,59.0,9.22
182,sorland,NO,0,75,67.667,12.6934,33.8,5.75
183,seoul,KR,0,27,37.5683,126.9778,69.8,9.22
184,mehamn,NO,20,74,71.0357,27.8492,24.8,8.05
185,bukoba,TZ,75,88,-1.3317,31.8122,68.0,5.75
186,ribeira grande,PT,87,89,38.5167,-28.7,60.44,10.42
187,tarakan,ID,75,89,3.3,117.6333,80.6,3.44
188,saint anthony,US,75,72,45.0205,-93.218,59.0,4.61
189,thinadhoo,MV,77,71,0.5333,72.9333,83.64,8.61
190,adrar,MR,76,23,20.5022,-10.0711,79.23,10.4
191,winnemucca,US,1,37,40.973,-117.7357,48.2,5.75
192,sablan,PH,8,34,16.493,120.4954,91.08,9.8
193,yima,CN,100,44,34.7381,111.8839,67.51,5.5
194,chokurdakh,RU,71,87,70.6333,147.9167,28.54,7.05
195,inta,RU,100,82,66.0317,60.1659,32.61,24.25
196,bambous virieux,MU,40,83,-20.3428,57.7575,82.99,12.66
197,ust-ilimsk,RU,100,74,58.0006,102.6619,39.47,9.42
198,hemsedal,NO,95,91,60.8629,8.5534,27.59,2.39
199,geraldton,AU,0,25,-28.7667,114.6,78.8,10.36
200,kahului,US,20,65,20.8947,-156.47,77.0,12.66
201,ampanihy,MG,20,79,-24.7,44.75,66.78,6.69
202,codrington,AU,100,75,-38.2667,141.9667,56.88,14.67
203,ukiah,US,1,55,39.1502,-123.2078,60.8,3.44
204,southbridge,US,99,99,42.0751,-72.0334,55.0,3.02
205,raga,SS,100,53,8.4596,25.678,78.04,5.99
206,slantsy,RU,100,66,59.1182,28.0914,39.16,12.39
207,bogovarovo,RU,87,71,58.9785,47.0246,44.02,6.11
208,kundiawa,PG,95,87,-6.0167,144.9667,71.49,0.85
209,sawakin,SD,0,68,19.1059,37.3321,83.46,3.36
210,port macquarie,AU,4,73,-31.4333,152.9167,73.0,1.01
211,wairoa,NZ,18,75,-39.0333,177.3667,57.99,3.38
212,touros,BR,40,94,-5.1989,-35.4608,73.4,3.44
213,nemuro,JP,75,53,43.3236,145.575,46.4,11.5
214,vila franca do campo,PT,20,94,37.7167,-25.4333,55.4,4.61
215,guerrero negro,MX,25,75,27.9769,-114.0611,59.65,17.83
216,vanimo,PG,77,80,-2.6741,141.3028,82.76,5.01
217,kaliyaganj,IN,93,44,25.6333,88.3167,90.93,8.68
218,skuodas,LT,90,60,56.2667,21.5333,41.0,10.36
219,berlevag,NO,20,86,70.8578,29.0864,24.8,9.22
220,marau,BR,1,83,-28.4492,-52.2,59.4,3.56
221,toguchin,RU,88,38,55.2353,84.3858,57.02,20.69
222,tura,IN,99,43,25.5198,90.2201,88.27,5.32
223,kieta,PG,99,80,-6.2167,155.6333,82.9,2.06
224,lebanon,US,90,94,36.2081,-86.2911,64.4,3.44
225,bandarbeyla,SO,75,62,9.4942,50.8122,85.01,4.38
226,malanje,AO,99,98,-9.5402,16.341,62.94,3.8
227,college,US,75,35,64.8569,-147.8028,51.8,12.66
228,khorixas,NA,56,46,-20.3667,14.9667,65.23,8.88
229,duartina,BR,0,75,-22.4144,-49.4039,59.68,4.54
230,slave lake,CA,1,64,55.2834,-114.769,33.8,5.75
231,sola,VU,58,77,-13.8833,167.55,79.86,9.06
232,aswan,EG,0,13,24.0934,32.907,85.06,10.71
233,alexandria,EG,0,52,31.2156,29.9553,68.0,3.44
234,hare bay,CA,77,87,48.8499,-54.0148,37.4,9.22
235,auki,SB,99,76,-8.7676,160.7034,82.98,3.27
236,hohhot,CN,40,22,40.8106,111.6522,64.4,26.84
237,monrovia,LR,75,94,6.3005,-10.7969,77.0,9.22
238,kiunga,PG,83,65,-6.1219,141.2906,86.27,3.65
239,manapparai,IN,40,58,10.6,78.4167,91.4,3.44
240,faanui,PF,27,71,-16.4833,-151.75,81.64,6.78
241,haines junction,CA,92,48,60.7522,-137.5108,41.0,6.91
242,carutapera,BR,100,95,-1.195,-46.02,73.45,4.61
243,majene,ID,16,62,-3.5403,118.9707,86.99,5.28
244,iturama,BR,0,52,-19.7281,-50.1956,64.92,8.88
245,mount gambier,AU,90,77,-37.8333,140.7667,57.2,18.41
246,diffa,NE,51,19,13.3154,12.6113,80.87,9.4
247,ostrovnoy,RU,14,78,68.0531,39.5131,26.87,12.77
248,waterloo,CA,90,71,43.4668,-80.5164,51.8,12.66
249,upata,VE,98,92,8.0086,-62.3989,78.01,4.0
250,sokoto,NG,100,15,13.0609,5.239,82.62,7.76
251,saint george,US,1,39,37.1041,-113.5841,63.0,26.46
252,muravlenko,RU,3,62,63.7898,74.523,35.74,14.12
253,nouadhibou,MR,0,82,20.931,-17.0347,62.6,16.11
254,sao miguel do araguaia,BR,1,72,-13.275,-50.1628,71.78,3.6
255,awjilah,LY,52,11,29.1081,21.2869,85.24,7.11
256,lucapa,AO,100,96,-8.4192,20.7447,65.75,3.44
257,mangrol,IN,21,46,21.1167,70.1167,88.65,8.08
258,stephenville crossing,CA,90,87,48.5,-58.4318,39.2,16.11
259,mugur-aksy,RU,9,29,50.35,90.5,34.52,4.34
260,severo-kurilsk,RU,100,98,50.6789,156.125,35.82,18.99
261,aliquippa,US,90,37,40.6367,-80.2401,68.0,5.75
262,am timan,TD,19,49,11.0297,20.2827,83.17,7.4
263,san juan,AR,84,52,-31.5375,-68.5364,63.46,6.64
264,tiksi,RU,100,93,71.6872,128.8694,29.61,5.73
265,turukhansk,RU,100,98,65.8167,87.9833,34.86,15.12
266,aksarka,RU,80,82,66.5606,67.7975,32.47,18.23
267,alofi,NU,88,83,-19.0595,-169.9187,75.2,11.5
268,mildura,AU,90,59,-34.2,142.15,64.4,9.22
269,nelson bay,AU,20,64,-32.7167,152.15,75.0,5.75
270,hwange,ZW,45,60,-18.3693,26.5019,60.64,5.99
271,cockburn town,TC,53,75,21.4612,-71.1419,78.62,20.33
272,dunedin,NZ,52,67,-45.8742,170.5036,55.45,8.41
273,zyryanka,RU,22,70,65.75,150.85,38.75,11.81
274,leningradskiy,RU,77,88,69.3833,178.4167,21.74,4.88
275,roura,GF,90,94,4.7263,-52.3274,79.0,1.21
276,lagoa,PT,100,76,39.05,-27.9833,62.37,13.22
277,lipin bor,RU,97,48,60.2622,37.9763,38.16,11.54
278,ayagoz,KZ,0,19,47.9714,80.4392,59.95,6.04
279,farafangana,MG,97,89,-22.8167,47.8333,70.61,3.83
280,teknaf,BD,1,56,20.8624,92.3058,88.95,9.28
281,honningsvag,NO,20,64,70.9821,25.9704,32.0,4.0
282,fortuna,US,40,100,40.5982,-124.1573,51.01,6.91
283,juba,SS,100,85,4.8517,31.5825,72.86,2.62
284,anuradhapura,LK,52,60,8.3565,80.4173,88.2,4.36
285,resen,MK,81,76,41.0889,21.0122,54.81,4.18
286,snasa,NO,20,93,64.2457,12.3778,30.2,11.5
287,novikovo,RU,100,75,51.1537,37.8879,62.15,18.21
288,vyshhorod,UA,0,71,50.5848,30.4898,52.0,22.37
289,biasca,CH,17,61,46.3597,8.9697,44.6,6.91
290,albanel,CA,4,59,48.8832,-72.4487,32.0,10.36
291,northam,GB,100,92,51.0333,-4.2167,44.01,7.0
292,kiruna,SE,90,93,67.8557,20.2251,24.8,6.91
293,maceio,BR,75,94,-9.6658,-35.7353,71.6,5.75
294,peniche,PT,0,74,39.3558,-9.3811,51.01,5.01
295,iquitos,PE,40,94,-3.7481,-73.2472,75.2,1.14
296,ramshir,IR,75,28,30.8946,49.4092,86.0,16.11
297,bowmore,US,1,73,34.9421,-79.3031,69.8,9.22
298,mitzic,GA,100,99,0.7821,11.549,68.56,2.04
299,gamba,GA,99,92,-2.65,10.0,77.41,4.47
300,kalmunai,LK,86,63,7.4167,81.8167,87.28,5.3
301,sorong,ID,47,66,-0.8833,131.25,85.24,9.48
302,tomatlan,MX,0,74,19.9333,-105.25,66.43,2.51
303,zaozerne,UA,81,72,45.1582,33.2787,59.36,11.23
304,upernavik,GL,40,72,72.7868,-56.1549,19.49,6.87
305,awbari,LY,0,9,26.5921,12.7805,78.33,10.98
306,seinajoki,FI,0,75,62.7945,22.8282,39.0,1.72
307,lompoc,US,1,87,34.6391,-120.4579,50.0,11.5
308,cocobeach,GA,75,94,1.0002,9.5823,77.0,4.61
309,villazon,BO,3,27,-22.0866,-65.5942,46.2,2.37
310,ajdabiya,LY,44,14,30.7554,20.2263,85.73,10.58
311,englewood,US,90,93,39.6478,-104.9878,48.0,8.05
312,dolores,AR,69,95,-36.3132,-57.6792,62.04,6.55
313,tongzi,CN,100,88,28.7829,105.0877,68.54,1.92
314,san quintin,MX,35,75,30.4833,-115.95,59.0,13.11
315,natchitoches,US,40,100,31.7668,-93.1335,69.8,6.91
316,santa maria la alta,MX,50,51,18.6,-97.6667,68.63,5.75
317,bac lieu,VN,41,53,9.285,105.7244,90.86,17.85
318,bonfim,BR,93,91,3.0833,-59.95,74.16,1.86
319,forestville,US,1,52,38.8451,-76.875,71.6,8.05
320,biak,ID,32,70,-0.9131,122.8766,82.63,6.35
321,paris,FR,0,87,48.8534,2.3488,42.01,2.3
322,saint-ambroise,CA,33,60,48.5501,-71.3324,34.0,10.36
323,port blair,IN,40,74,11.6667,92.75,89.6,9.22
324,mumford,GH,100,87,5.2618,-0.759,80.19,10.69
325,huaiyuan,CN,97,52,32.973,117.1995,78.71,9.62
326,vao,NC,69,75,-22.6667,167.4833,74.48,21.9
327,druzhba,UA,82,93,52.0428,33.9453,54.99,13.31
328,ola,RU,20,58,59.5833,151.2833,39.6,8.84
329,pandan,PH,23,78,14.0453,124.1694,83.35,12.44
330,deputatskiy,RU,100,99,69.3,139.9,30.74,3.06
331,yucca valley,US,0,26,34.1142,-116.4322,64.99,7.0
332,kloulklubed,PW,75,74,7.0419,134.2556,86.0,12.66
333,maturin,VE,99,90,9.75,-63.1767,74.12,3.31
334,salalah,OM,75,79,17.0151,54.0924,86.0,5.75
335,wajir,KE,40,88,1.7471,40.0573,77.0,13.51
336,shouguang,CN,100,31,36.88,118.7375,68.97,12.75
337,sao filipe,CV,8,71,14.8961,-24.4956,70.38,11.48
338,shimoda,JP,20,52,34.6667,138.95,64.4,14.97
339,karratha,AU,100,35,-20.7377,116.8463,87.48,15.03
340,atbasar,KZ,84,30,51.8,68.3333,66.6,13.82
341,opuwo,NA,30,66,-18.0607,13.84,61.74,7.43
342,southampton,GB,100,72,50.904,-1.4043,46.0,6.71
343,chuy,UY,12,81,-33.6971,-53.4616,62.19,6.93
344,petrykivka,UA,0,82,48.7298,34.6351,57.2,8.95
345,medicine hat,CA,1,70,50.0501,-110.6683,39.99,4.61
346,aripuana,BR,42,98,-9.1667,-60.6333,70.65,1.32
347,hearst,CA,22,59,49.6835,-83.6665,30.2,2.3
348,eldoret,KE,75,94,0.5204,35.2699,53.6,4.61
349,srednekolymsk,RU,10,92,67.45,153.6833,33.82,5.84
350,itaueira,BR,60,70,-7.6033,-43.0256,71.73,4.7
351,sitka,US,90,53,57.0531,-135.33,50.0,10.36
352,jacareacanga,BR,52,99,-6.2222,-57.7528,71.49,1.16
353,elektrenai,LT,90,87,54.7667,24.6333,39.99,10.36
354,kavieng,PG,91,71,-2.5744,150.7967,84.47,6.87
355,abu dhabi,AE,0,54,24.4667,54.3667,86.0,10.36
356,skibbereen,IE,75,87,51.55,-9.2667,44.6,16.11
357,angoram,PG,21,50,-4.0625,144.0661,91.67,5.12
358,guanica,PR,89,91,17.9716,-66.908,73.0,4.92
359,hanzhong,CN,100,68,33.0728,107.0303,72.45,2.46
360,tukrah,LY,68,25,32.5341,20.5791,83.82,8.61
361,katsuura,JP,14,78,35.1333,140.3,70.0,15.99
362,tecoanapa,MX,22,65,16.5167,-98.75,79.32,5.35
363,gua musang,MY,36,54,4.8823,101.9644,91.72,2.35
364,galle,LK,78,67,6.0367,80.217,85.17,2.77
365,bonavista,CA,71,87,48.6499,-53.1147,39.0,9.22
366,cayenne,GF,90,94,4.9333,-52.3333,79.0,7.29
367,airai,TL,73,67,-8.9266,125.4092,68.23,4.41
368,porto novo,BJ,40,84,6.4965,2.6036,84.2,13.8
369,itarema,BR,100,82,-2.9248,-39.9167,76.48,2.13
370,olinda,BR,75,88,-8.0089,-34.8553,71.6,3.44
371,kolodeznyy,RU,75,67,51.3333,39.1833,62.6,13.42
372,mala,PE,65,88,-12.6581,-76.6308,66.52,2.08
373,braco do norte,BR,37,88,-28.275,-49.1656,62.15,2.35
374,sisimiut,GL,0,59,66.9395,-53.6735,36.09,5.66
375,beyneu,KZ,71,13,45.3167,55.2,73.02,11.34
376,glencoe,ZA,0,82,-28.1783,30.147,45.84,2.21
377,barguzin,RU,100,66,53.6167,109.6167,44.28,13.11
378,stephenville,US,1,73,32.2207,-98.2023,72.0,6.91
379,contamana,PE,57,84,-7.3333,-75.0167,72.81,0.4
380,araouane,ML,46,35,18.9048,-3.5265,84.25,15.82
381,gimli,CA,100,60,50.6336,-96.9907,39.2,13.8
382,gidam,IN,99,39,18.9833,81.4,85.91,1.41
383,constitucion,CL,100,95,-35.3333,-72.4167,53.91,3.94
384,sabang,ID,99,73,5.8933,95.3214,84.43,9.75
385,ballina,AU,40,73,-28.8667,153.5667,73.4,10.36
386,ossora,RU,10,80,59.2353,163.0719,28.17,4.41
387,caconda,AO,91,96,-13.7333,15.0667,58.89,4.72
388,korla,CN,100,18,41.7597,86.1469,59.43,2.06
389,henties bay,NA,52,71,-22.116,14.2845,66.99,7.0
390,sa kaeo,TH,33,52,13.75,102.3333,93.34,2.08
391,vila velha,BR,75,100,-20.3297,-40.2925,68.0,8.05
392,melville,US,1,72,40.7934,-73.4151,62.01,4.61
393,bihoro,JP,75,93,43.8228,144.1044,39.2,13.8
394,el alto,PE,88,82,-4.2714,-81.2147,68.41,18.7
395,erzin,TR,37,82,36.9559,36.2,70.0,1.77
396,yar-sale,RU,14,82,66.8333,70.8333,30.67,15.9
397,axim,GH,100,86,4.8699,-2.2405,80.08,8.79
398,chikwawa,MW,80,93,-16.0335,34.8009,65.8,5.32
399,minab,IR,40,58,27.1467,57.0801,87.8,9.22
400,port elizabeth,ZA,0,87,-33.918,25.5701,51.8,6.91
401,totness,SR,100,91,5.8833,-56.3167,76.64,10.36
402,krasnyy yar,RU,0,40,46.5331,48.3456,71.6,8.95
403,nome,US,90,65,64.5011,-165.4064,39.2,8.05
404,geri,CY,0,53,35.1,33.4167,73.4,4.61
405,bilma,NE,1,9,18.6853,12.9164,80.82,8.08
406,krasnoselkup,RU,100,100,65.7,82.4667,33.4,10.89
407,nikolskoye,RU,0,56,59.7035,30.7861,41.0,11.18
408,vardo,NO,0,59,70.3705,31.1107,30.2,6.91
409,nouakchott,MR,13,68,18.0858,-15.9785,66.2,17.27
410,dali,CN,34,30,25.7,100.1833,76.23,8.14
411,neryungri,RU,100,92,56.6709,124.6491,38.37,4.29
412,forbes,AU,33,39,-33.3833,148.0167,77.0,7.85
413,hinton,CA,100,65,53.4001,-117.5857,41.0,6.91
414,cidreira,BR,31,91,-30.1811,-50.2056,67.91,7.7
415,weymouth,US,97,71,42.2209,-70.9398,60.8,9.22
416,lasa,IT,0,86,46.6166,10.7002,42.8,3.44
417,bay roberts,CA,77,87,47.5999,-53.2648,43.0,3.0
418,tambacounda,SN,79,23,13.7539,-13.7586,86.0,6.91
419,derzhavinsk,KZ,53,27,51.1,66.3167,67.23,13.87
420,narsaq,GL,90,24,60.9167,-46.05,41.0,46.04
421,clyde river,CA,1,93,70.4692,-68.5914,19.4,16.11
422,andenes,NO,20,75,69.3143,16.1194,33.8,10.36
423,roxana,CR,0,100,10.2753,-83.7513,68.0,3.44
424,quelimane,MZ,75,94,-17.8786,36.8883,71.6,8.05
425,akureyri,IS,90,74,65.6835,-18.0878,32.0,4.61
426,snezhnogorsk,RU,75,74,69.1933,33.2531,32.0,2.24
427,tanout,NE,6,10,14.9709,8.8879,78.04,9.35
428,bondoukou,CI,98,94,8.0333,-2.8,73.13,6.78
429,ocala,US,1,94,29.1872,-82.1401,69.01,4.25
430,fayaoue,NC,19,79,-20.65,166.5333,76.64,21.68
431,qasigiannguit,GL,0,23,68.8193,-51.1922,44.6,19.57
432,fort nelson,CA,20,43,58.8053,-122.7002,48.2,6.91
433,taoudenni,ML,94,45,22.6783,-3.9836,83.03,11.21
434,saint-augustin,CA,43,83,51.226,-58.6502,37.35,10.63
435,husavik,IS,90,74,66.0449,-17.3389,32.0,4.61
436,baijiantan,CN,55,13,45.6333,85.1833,61.54,9.75
437,sandwick,GB,20,87,60.0,-1.25,37.4,4.61
438,tual,ID,78,75,-5.6667,132.75,82.71,15.68
439,casablanca,MA,0,87,33.5928,-7.6192,51.8,1.14
440,honiara,SB,74,79,-9.4333,159.95,82.47,1.79
441,lata,PT,5,85,40.1629,-8.3327,51.01,3.69
442,elko,US,53,43,41.0002,-115.5012,46.99,11.99
443,okhotsk,RU,31,63,59.3833,143.3,39.4,6.02
444,xam nua,LA,12,45,20.4197,104.0439,85.98,4.56
445,mimongo,GA,100,99,-1.6195,11.6068,68.9,0.98
446,lavrentiya,RU,100,81,65.5833,-171.0,24.35,12.12
447,puerto escondido,MX,96,74,15.85,-97.0667,80.6,8.32
448,lethem,GY,88,93,3.3803,-59.7968,73.69,2.82
449,buraydah,SA,0,31,26.326,43.975,77.0,4.61
450,praia,CV,20,73,14.9215,-23.5087,69.8,18.41
451,barmer,IN,7,25,25.75,71.3833,92.48,6.06
452,mizdah,LY,100,51,31.4451,12.9801,66.74,4.21
453,goderich,CA,99,76,43.7501,-81.7165,53.6,21.85
454,shenjiamen,CN,23,77,29.9576,122.298,64.13,22.44
455,sanarate,GT,75,94,14.795,-90.1922,64.4,9.22
456,bontang,ID,94,74,0.1333,117.5,81.39,3.87
457,rantepao,ID,42,89,-2.9701,119.8978,76.21,3.0
458,rabo de peixe,PT,20,94,37.8,-25.5833,55.4,4.61
459,sao felix do xingu,BR,36,98,-6.6447,-51.995,69.69,1.79
460,asyut,EG,0,25,27.181,31.1837,75.2,12.66
461,los llanos de aridane,ES,75,63,28.6585,-17.9182,64.4,8.05
462,tamworth,GB,100,87,52.634,-1.6959,43.0,5.99
463,presidencia roque saenz pena,AR,0,84,-26.7852,-60.4388,73.0,1.99
464,faya,SA,20,68,18.3851,42.4509,66.2,1.61
465,namatanai,PG,94,67,-3.6667,152.4333,85.5,5.32
466,freeport,US,1,72,40.6576,-73.5832,62.01,4.61
467,camacha,PT,20,77,33.0833,-16.3333,59.0,4.61
468,mendi,PG,88,93,-6.1761,143.6513,63.0,3.04
469,puerto colombia,CO,40,89,10.9878,-74.9547,80.6,9.22
470,mehtar lam,AF,95,33,34.6714,70.2094,83.12,2.48
471,montmagny,FR,0,87,48.9734,2.3469,42.01,2.3
472,iquique,CL,90,82,-20.2208,-70.1431,62.6,2.3
473,calbuco,CL,40,93,-41.768,-73.1273,42.8,4.61
474,san borja,BO,6,95,-14.8167,-66.85,68.79,1.97
475,kodigenahalli,IN,40,57,13.72,77.3903,82.4,3.44
476,inhambane,MZ,40,77,-23.865,35.3833,68.0,6.91
477,hamilton,US,90,100,39.1834,-84.5333,59.0,5.82
478,hami,CN,0,8,42.8,93.45,62.74,11.48
479,partizanskoye,RU,100,53,55.5006,94.39,48.27,20.6
480,qianan,CN,89,24,44.9932,124.0581,69.6,22.12
481,vorkuta,RU,100,93,67.5,64.0,27.19,20.36
482,fort abbas,PK,58,14,29.1925,72.8536,98.4,6.31
483,beringovskiy,RU,100,84,63.05,179.3167,22.71,15.14
484,santa marta,CO,84,75,11.2408,-74.199,82.99,5.14
485,alappuzha,IN,96,68,9.49,76.3264,85.53,3.13
486,fuyu,CN,91,19,45.1833,124.8167,70.79,21.99
487,scottsbluff,US,90,71,41.8666,-103.6672,48.99,23.02
488,bereda,ES,24,100,43.2686,-7.5406,39.0,1.01
489,juneau,US,90,66,58.3019,-134.4197,46.4,6.91
490,pangkalanbuun,ID,47,46,-2.6833,111.6167,93.31,3.44
491,katete,UG,100,92,-0.7818,29.7544,61.09,2.64
492,kupang,ID,24,58,-10.1667,123.5833,85.62,14.14
493,trincomalee,LK,27,69,8.5711,81.2335,85.3,4.85
494,mnogovershinnyy,RU,86,79,53.9353,139.9242,31.53,10.65
495,san jeronimo,PE,51,85,-11.9472,-75.2829,42.66,0.81
496,north bend,US,1,82,43.4065,-124.2243,51.8,8.05
497,isangel,VU,75,89,-19.55,169.2667,78.8,5.75
498,caravelas,BR,84,88,-17.7125,-39.2481,70.92,4.61
499,smithers,CA,20,46,54.7804,-127.1743,46.4,3.44
500,razvilnoye,RU,37,70,46.2387,41.2987,66.81,12.12
501,komsomolskiy,UZ,92,41,40.4272,71.7189,78.8,4.61
502,daru,PG,48,80,-9.0763,143.2092,81.72,13.78
503,port augusta,AU,40,63,-32.5,137.7667,66.2,12.66
504,kamloops,CA,20,40,50.6665,-120.3192,53.6,3.44
505,vestmanna,FO,90,86,62.1564,-7.1664,32.0,3.44
506,talas,TR,0,63,38.6908,35.5538,62.6,1.41
507,marsh harbour,BS,86,80,26.5412,-77.0636,76.57,14.5
508,thabazimbi,ZA,0,67,-24.5917,27.4116,52.79,0.76
509,outjo,NA,47,52,-20.1167,16.15,59.5,11.77
510,warangal,IN,56,38,18.0,79.5833,93.47,6.71
511,evensk,RU,2,74,61.95,159.2333,32.14,7.56
512,coronel,CL,90,100,-37.0167,-73.1333,53.6,4.61
513,mednogorsk,RU,31,70,51.4128,57.595,61.7,5.21
514,te anau,NZ,10,73,-45.4167,167.7167,52.48,6.31
515,springbok,ZA,81,26,-29.6643,17.8865,60.13,8.66
516,ponta delgada,PT,20,94,37.7333,-25.6667,55.4,4.61
517,senanga,ZM,78,90,-16.1167,23.2667,61.99,6.78
518,butterworth,MY,20,74,5.3991,100.3638,89.6,5.75
519,jiayuguan,CN,3,13,39.8167,98.3,52.88,13.82
520,port hueneme,US,1,82,34.1478,-119.1951,55.99,8.05
521,toppenish,US,1,53,46.3774,-120.3087,57.0,6.91
522,chilca,PE,0,88,-12.5211,-76.7372,66.0,5.75
523,igarka,RU,100,88,67.4667,86.5833,36.03,13.94
524,filingue,NE,45,17,14.3521,3.3168,81.79,3.24
525,augusto correa,BR,100,97,-1.0217,-46.635,72.32,2.86
526,maragogi,BR,100,90,-9.0122,-35.2225,73.51,8.7
527,vitim,RU,28,61,59.4511,112.5578,49.68,3.74
528,dabakala,CI,99,87,8.3667,-4.4333,75.54,4.59
529,miandrivazo,MG,94,77,-19.5167,45.4667,75.36,3.11
530,micheweni,TZ,71,85,-4.9667,39.8333,78.91,13.56
531,salaga,GH,98,80,8.5508,-0.5188,78.48,6.29
532,bubaque,GW,99,61,11.2833,-15.8333,77.97,9.22
533,elizabeth city,US,100,70,36.2946,-76.2511,69.01,1.01
534,lorengau,PG,72,65,-2.0226,147.2712,85.55,1.28
535,bilibino,RU,8,75,68.0546,166.4372,26.29,0.96
536,richards bay,ZA,1,83,-28.783,32.0377,61.92,3.42
537,hillsborough,US,1,76,37.5741,-122.3794,54.0,17.27
538,mbandaka,CD,82,96,0.0487,18.2603,71.11,3.36
539,omboue,GA,81,91,-1.5746,9.2618,77.49,4.97
540,hauterive,FR,0,93,46.0901,3.4459,33.8,2.3
541,nioro,GM,82,48,13.35,-15.75,72.93,8.61
542,mezen,RU,4,46,65.8522,44.24,35.24,11.99
543,santa rosa,PH,20,52,14.3122,121.1114,95.0,12.66
544,iwanai,JP,100,76,42.9744,140.5089,44.19,8.97
545,mamlyutka,KZ,75,87,54.9375,68.5394,50.0,6.71
546,porto velho,BR,40,88,-8.7619,-63.9039,77.0,2.3
547,coquimbo,CL,0,87,-29.9533,-71.3436,53.6,3.44
548,minbu,MM,0,27,20.1833,94.8833,97.43,5.59
549,murgab,TM,90,43,37.4966,61.9714,73.4,9.22
550,laguna,US,1,30,38.421,-121.4238,77.0,8.05
551,punta alta,AR,100,55,-38.8759,-62.0736,63.45,7.38
552,hervey bay,AU,75,61,-25.2986,152.8535,77.0,13.8
553,morehead,US,90,100,37.2711,-87.1764,62.01,6.91
554,belyy yar,RU,0,35,53.6039,91.3903,53.6,13.42
555,qinhuangdao,CN,37,49,39.9317,119.5883,66.24,22.03
556,lamar,US,1,88,33.6668,-95.5836,66.2,8.05
557,pringsewu,ID,57,59,-5.3582,104.9744,88.3,6.38
558,panzhihua,CN,1,24,26.5851,101.7128,90.34,1.66
559,luanda,AO,75,94,-8.8368,13.2343,75.2,3.44
560,pacatuba,BR,40,89,-3.9842,-38.6203,79.0,3.44
561,angoche,MZ,58,83,-16.2325,39.9086,75.25,14.63
562,bathsheba,BB,75,73,13.2167,-59.5167,77.0,17.27
563,grindavik,IS,0,86,63.8424,-22.4338,28.4,9.22
564,paratebueno,CO,100,98,4.3758,-73.2155,71.22,2.8
565,palu,ID,35,79,-0.8917,119.8707,85.62,2.93
566,teguise,ES,40,63,29.0605,-13.564,64.4,11.5
567,sar-e pul,AF,100,51,35.8333,66.1667,66.27,4.43
568,atar,MR,0,23,20.5169,-13.0499,76.33,9.08
569,homer,US,90,61,59.6425,-151.5483,45.0,4.61
570,syamzha,RU,99,36,60.0158,41.0614,40.57,8.46
571,maun,BW,0,77,-19.9833,23.4167,57.2,6.91
572,changanacheri,IN,93,61,9.4667,76.55,89.56,1.81
573,flinders,AU,11,62,-34.5833,150.8552,75.99,1.01
574,ginda,IN,7,26,30.6945,78.4932,76.86,6.22
575,kelamangalam,IN,40,61,12.6,77.85,90.0,3.44
576,mayumba,GA,100,90,-3.432,10.6554,77.45,5.64
577,port-cartier,CA,20,75,50.0334,-66.8654,36.0,11.5
578,beloha,MG,11,74,-25.1667,45.05,68.95,6.89
579,kangaba,ML,100,67,11.9333,-8.4167,80.31,6.6
580,bodden town,KY,2,1,19.2833,-81.25,81.0,4.0
581,heinola,FI,0,44,61.2056,26.0381,41.0,9.22
582,kouango,CF,100,81,4.9934,19.9619,73.04,3.78
583,zhaoqing,CN,98,26,23.0512,112.4597,80.01,9.04
584,santo domingo,DO,20,88,18.5001,-69.9886,75.99,5.14
585,savinka,RU,79,73,50.0785,47.0994,63.95,10.76
586,loreto,MX,3,11,22.2667,-101.9667,60.84,6.2
